[
  {
    "id": 1,
    "town_name": "本河内１丁目",
    "population_age_65_and_over": 214,
    "latitude": 32.749607,
    "longitude": 129.897547
  },
  {
    "id": 2,
    "town_name": "本河内２丁目",
    "population_age_65_and_over": 292,
    "latitude": 32.750737,
    "longitude": 129.902321
  },
  {
    "id": 3,
    "town_name": "本河内３丁目",
    "population_age_65_and_over": 428,
    "latitude": 32.750949,
    "longitude": 129.915229
  },
  {
    "id": 4,
    "town_name": "本河内４丁目",
    "population_age_65_and_over": 63,
    "latitude": 32.762006,
    "longitude": 129.913866
  },
  {
    "id": 5,
    "town_name": "矢の平１丁目",
    "population_age_65_and_over": 158,
    "latitude": 32.747876,
    "longitude": 129.89417
  },
  {
    "id": 6,
    "town_name": "矢の平２丁目",
    "population_age_65_and_over": 259,
    "latitude": 32.748251,
    "longitude": 129.891174
  },
  {
    "id": 7,
    "town_name": "矢の平３丁目",
    "population_age_65_and_over": 138,
    "latitude": 32.744679,
    "longitude": 129.894219
  },
  {
    "id": 8,
    "town_name": "矢の平４丁目",
    "population_age_65_and_over": 129,
    "latitude": 32.741858,
    "longitude": 129.895537
  },
  {
    "id": 9,
    "town_name": "白木町",
    "population_age_65_and_over": 324,
    "latitude": 32.740854,
    "longitude": 129.898677
  },
  {
    "id": 10,
    "town_name": "八つ尾町",
    "population_age_65_and_over": 471,
    "latitude": 32.735775,
    "longitude": 129.897198
  },
  {
    "id": 11,
    "town_name": "中川１丁目",
    "population_age_65_and_over": 113,
    "latitude": 32.751187,
    "longitude": 129.892647
  },
  {
    "id": 12,
    "town_name": "中川２丁目",
    "population_age_65_and_over": 189,
    "latitude": 32.75197,
    "longitude": 129.894473
  },
  {
    "id": 13,
    "town_name": "新中川町",
    "population_age_65_and_over": 141,
    "latitude": 32.751308,
    "longitude": 129.889924
  },
  {
    "id": 14,
    "town_name": "桜馬場１丁目",
    "population_age_65_and_over": 202,
    "latitude": 32.752809,
    "longitude": 129.888296
  },
  {
    "id": 15,
    "town_name": "桜馬場２丁目",
    "population_age_65_and_over": 201,
    "latitude": 32.753548,
    "longitude": 129.890845
  },
  {
    "id": 16,
    "town_name": "新大工町",
    "population_age_65_and_over": 255,
    "latitude": 32.752809,
    "longitude": 129.885753
  },
  {
    "id": 17,
    "town_name": "伊勢町",
    "population_age_65_and_over": 102,
    "latitude": 32.751846,
    "longitude": 129.885511
  },
  {
    "id": 18,
    "town_name": "伊良林１丁目",
    "population_age_65_and_over": 163,
    "latitude": 32.750932,
    "longitude": 129.886942
  },
  {
    "id": 19,
    "town_name": "伊良林２丁目",
    "population_age_65_and_over": 160,
    "latitude": 32.748987,
    "longitude": 129.888083
  },
  {
    "id": 20,
    "town_name": "伊良林３丁目",
    "population_age_65_and_over": 206,
    "latitude": 32.746312,
    "longitude": 129.887635
  },
  {
    "id": 21,
    "town_name": "風頭町",
    "population_age_65_and_over": 334,
    "latitude": 32.742947,
    "longitude": 129.888674
  },
  {
    "id": 22,
    "town_name": "彦見町",
    "population_age_65_and_over": 301,
    "latitude": 32.741108,
    "longitude": 129.891941
  },
  {
    "id": 23,
    "town_name": "寺町",
    "population_age_65_and_over": 21,
    "latitude": 32.747277,
    "longitude": 129.884096
  },
  {
    "id": 24,
    "town_name": "八幡町",
    "population_age_65_and_over": 296,
    "latitude": 32.75038,
    "longitude": 129.884187
  },
  {
    "id": 25,
    "town_name": "麹屋町",
    "population_age_65_and_over": 213,
    "latitude": 32.748821,
    "longitude": 129.883267
  },
  {
    "id": 26,
    "town_name": "出来大工町",
    "population_age_65_and_over": 118,
    "latitude": 32.751759,
    "longitude": 129.883059
  },
  {
    "id": 27,
    "town_name": "馬町",
    "population_age_65_and_over": 132,
    "latitude": 32.75238,
    "longitude": 129.882487
  },
  {
    "id": 28,
    "town_name": "炉粕町",
    "population_age_65_and_over": 56,
    "latitude": 32.752897,
    "longitude": 129.881749
  },
  {
    "id": 29,
    "town_name": "勝山町",
    "population_age_65_and_over": 99,
    "latitude": 32.751081,
    "longitude": 129.879854
  },
  {
    "id": 30,
    "town_name": "大井手町",
    "population_age_65_and_over": 47,
    "latitude": 32.751074,
    "longitude": 129.88257
  },
  {
    "id": 31,
    "town_name": "今博多町",
    "population_age_65_and_over": 67,
    "latitude": 32.750591,
    "longitude": 129.882127
  },
  {
    "id": 32,
    "town_name": "古町",
    "population_age_65_and_over": 68,
    "latitude": 32.750185,
    "longitude": 129.881596
  },
  {
    "id": 33,
    "town_name": "桶屋町",
    "population_age_65_and_over": 95,
    "latitude": 32.749621,
    "longitude": 129.881191
  },
  {
    "id": 34,
    "town_name": "諏訪町",
    "population_age_65_and_over": 236,
    "latitude": 32.747179,
    "longitude": 129.881531
  },
  {
    "id": 35,
    "town_name": "魚の町",
    "population_age_65_and_over": 307,
    "latitude": 32.748659,
    "longitude": 129.879922
  },
  {
    "id": 36,
    "town_name": "栄町",
    "population_age_65_and_over": 70,
    "latitude": 32.747575,
    "longitude": 129.878208
  },
  {
    "id": 37,
    "town_name": "古川町",
    "population_age_65_and_over": 115,
    "latitude": 32.745891,
    "longitude": 129.881714
  },
  {
    "id": 38,
    "town_name": "銀屋町",
    "population_age_65_and_over": 88,
    "latitude": 32.745903,
    "longitude": 129.880844
  },
  {
    "id": 39,
    "town_name": "東古川町",
    "population_age_65_and_over": 67,
    "latitude": 32.745743,
    "longitude": 129.88022
  },
  {
    "id": 40,
    "town_name": "賑町",
    "population_age_65_and_over": 96,
    "latitude": 32.746623,
    "longitude": 129.877299
  },
  {
    "id": 41,
    "town_name": "万屋町",
    "population_age_65_and_over": 254,
    "latitude": 32.74518,
    "longitude": 129.879076
  },
  {
    "id": 42,
    "town_name": "築町",
    "population_age_65_and_over": 39,
    "latitude": 32.745168,
    "longitude": 129.876104
  },
  {
    "id": 43,
    "town_name": "浜町",
    "population_age_65_and_over": 118,
    "latitude": 32.744284,
    "longitude": 129.877763
  },
  {
    "id": 44,
    "town_name": "銅座町",
    "population_age_65_and_over": 99,
    "latitude": 32.742984,
    "longitude": 129.876577
  },
  {
    "id": 45,
    "town_name": "鍛冶屋町",
    "population_age_65_and_over": 250,
    "latitude": 32.743031,
    "longitude": 129.883124
  },
  {
    "id": 46,
    "town_name": "油屋町",
    "population_age_65_and_over": 196,
    "latitude": 32.742216,
    "longitude": 129.881879
  },
  {
    "id": 47,
    "town_name": "高平町",
    "population_age_65_and_over": 195,
    "latitude": 32.741682,
    "longitude": 129.885728
  },
  {
    "id": 48,
    "town_name": "愛宕1丁目",
    "population_age_65_and_over": 289,
    "latitude": 32.73852,
    "longitude": 129.88779
  },
  {
    "id": 49,
    "town_name": "愛宕2丁目",
    "population_age_65_and_over": 239,
    "latitude": 32.737535,
    "longitude": 129.891132
  },
  {
    "id": 50,
    "town_name": "愛宕3丁目",
    "population_age_65_and_over": 369,
    "latitude": 32.733629,
    "longitude": 129.890233
  },
  {
    "id": 51,
    "town_name": "愛宕4丁目",
    "population_age_65_and_over": 189,
    "latitude": 32.735359,
    "longitude": 129.893977
  },
  {
    "id": 52,
    "town_name": "弥生町",
    "population_age_65_and_over": 398,
    "latitude": 32.730841,
    "longitude": 129.894964
  },
  {
    "id": 53,
    "town_name": "三景台町",
    "population_age_65_and_over": 367,
    "latitude": 32.726474,
    "longitude": 129.896647
  },
  {
    "id": 54,
    "town_name": "東小島町",
    "population_age_65_and_over": 170,
    "latitude": 32.739612,
    "longitude": 129.882882
  },
  {
    "id": 55,
    "town_name": "上小島１丁目",
    "population_age_65_and_over": 190,
    "latitude": 32.7372,
    "longitude": 129.884165
  },
  {
    "id": 56,
    "town_name": "上小島２丁目",
    "population_age_65_and_over": 217,
    "latitude": 32.736016,
    "longitude": 129.886287
  },
  {
    "id": 57,
    "town_name": "上小島３丁目",
    "population_age_65_and_over": 301,
    "latitude": 32.732919,
    "longitude": 129.88796
  },
  {
    "id": 58,
    "town_name": "上小島４丁目",
    "population_age_65_and_over": 343,
    "latitude": 32.732388,
    "longitude": 129.885338
  },
  {
    "id": 59,
    "town_name": "上小島５丁目",
    "population_age_65_and_over": 297,
    "latitude": 32.728766,
    "longitude": 129.88815
  },
  {
    "id": 60,
    "town_name": "桜木町",
    "population_age_65_and_over": 198,
    "latitude": 32.729536,
    "longitude": 129.890919
  },
  {
    "id": 61,
    "town_name": "出島町",
    "population_age_65_and_over": 195,
    "latitude": 32.742998,
    "longitude": 129.872367
  },
  {
    "id": 62,
    "town_name": "江戸町",
    "population_age_65_and_over": 51,
    "latitude": 32.744684,
    "longitude": 129.87359
  },
  {
    "id": 63,
    "town_name": "元船町",
    "population_age_65_and_over": 145,
    "latitude": 32.747201,
    "longitude": 129.869973
  },
  {
    "id": 64,
    "town_name": "五島町",
    "population_age_65_and_over": 299,
    "latitude": 32.748799,
    "longitude": 129.87309
  },
  {
    "id": 65,
    "town_name": "樺島町",
    "population_age_65_and_over": 183,
    "latitude": 32.746391,
    "longitude": 129.873147
  },
  {
    "id": 66,
    "town_name": "万才町",
    "population_age_65_and_over": 134,
    "latitude": 32.746636,
    "longitude": 129.875162
  },
  {
    "id": 67,
    "town_name": "金屋町",
    "population_age_65_and_over": 147,
    "latitude": 32.749069,
    "longitude": 129.874641
  },
  {
    "id": 68,
    "town_name": "興善町",
    "population_age_65_and_over": 73,
    "latitude": 32.748794,
    "longitude": 129.876546
  },
  {
    "id": 69,
    "town_name": "桜町",
    "population_age_65_and_over": 103,
    "latitude": 32.749966,
    "longitude": 129.878143
  },
  {
    "id": 70,
    "town_name": "恵美須町",
    "population_age_65_and_over": 167,
    "latitude": 32.750517,
    "longitude": 129.874573
  },
  {
    "id": 71,
    "town_name": "大黒町",
    "population_age_65_and_over": 82,
    "latitude": 32.752149,
    "longitude": 129.872589
  },
  {
    "id": 72,
    "town_name": "八千代町",
    "population_age_65_and_over": 5,
    "latitude": 32.755631,
    "longitude": 129.869636
  },
  {
    "id": 73,
    "town_name": "御船蔵町",
    "population_age_65_and_over": 431,
    "latitude": 32.757584,
    "longitude": 129.871492
  },
  {
    "id": 74,
    "town_name": "浜平１丁目",
    "population_age_65_and_over": 230,
    "latitude": 32.759343,
    "longitude": 129.872749
  },
  {
    "id": 75,
    "town_name": "浜平２丁目",
    "population_age_65_and_over": 118,
    "latitude": 32.76087,
    "longitude": 129.874993
  },
  {
    "id": 76,
    "town_name": "西坂町",
    "population_age_65_and_over": 223,
    "latitude": 32.755841,
    "longitude": 129.874518
  },
  {
    "id": 77,
    "town_name": "中町",
    "population_age_65_and_over": 95,
    "latitude": 32.751974,
    "longitude": 129.874354
  },
  {
    "id": 78,
    "town_name": "上町",
    "population_age_65_and_over": 197,
    "latitude": 32.75158,
    "longitude": 129.877757
  },
  {
    "id": 79,
    "town_name": "筑後町",
    "population_age_65_and_over": 226,
    "latitude": 32.753445,
    "longitude": 129.874457
  },
  {
    "id": 80,
    "town_name": "玉園町",
    "population_age_65_and_over": 108,
    "latitude": 32.752661,
    "longitude": 129.87765
  },
  {
    "id": 81,
    "town_name": "八百屋町",
    "population_age_65_and_over": 30,
    "latitude": 32.751667,
    "longitude": 129.880106
  },
  {
    "id": 82,
    "town_name": "立山１丁目",
    "population_age_65_and_over": 130,
    "latitude": 32.754768,
    "longitude": 129.88004
  },
  {
    "id": 83,
    "town_name": "立山２丁目",
    "population_age_65_and_over": 135,
    "latitude": 32.754588,
    "longitude": 129.877009
  },
  {
    "id": 84,
    "town_name": "立山３丁目",
    "population_age_65_and_over": 132,
    "latitude": 32.756875,
    "longitude": 129.878054
  },
  {
    "id": 85,
    "town_name": "立山４丁目",
    "population_age_65_and_over": 154,
    "latitude": 32.756924,
    "longitude": 129.879547
  },
  {
    "id": 86,
    "town_name": "立山５丁目",
    "population_age_65_and_over": 198,
    "latitude": 32.760687,
    "longitude": 129.878234
  },
  {
    "id": 87,
    "town_name": "上西山町",
    "population_age_65_and_over": 153,
    "latitude": 32.75499,
    "longitude": 129.883802
  },
  {
    "id": 88,
    "town_name": "下西山町",
    "population_age_65_and_over": 148,
    "latitude": 32.755804,
    "longitude": 129.885534
  },
  {
    "id": 89,
    "town_name": "西山本町",
    "population_age_65_and_over": 344,
    "latitude": 32.757796,
    "longitude": 129.883034
  },
  {
    "id": 90,
    "town_name": "西山１丁目",
    "population_age_65_and_over": 316,
    "latitude": 32.762289,
    "longitude": 129.881578
  },
  {
    "id": 91,
    "town_name": "西山２丁目",
    "population_age_65_and_over": 323,
    "latitude": 32.760711,
    "longitude": 129.887133
  },
  {
    "id": 92,
    "town_name": "西山３丁目",
    "population_age_65_and_over": 387,
    "latitude": 32.767616,
    "longitude": 129.887491
  },
  {
    "id": 93,
    "town_name": "西山４丁目",
    "population_age_65_and_over": 281,
    "latitude": 32.774705,
    "longitude": 129.888875
  },
  {
    "id": 94,
    "town_name": "西山台１丁目",
    "population_age_65_and_over": 229,
    "latitude": 32.782031,
    "longitude": 129.888167
  },
  {
    "id": 95,
    "town_name": "西山台２丁目",
    "population_age_65_and_over": 331,
    "latitude": 32.781751,
    "longitude": 129.893179
  },
  {
    "id": 96,
    "town_name": "片淵１丁目",
    "population_age_65_and_over": 194,
    "latitude": 32.754198,
    "longitude": 129.886044
  },
  {
    "id": 97,
    "town_name": "片淵２丁目",
    "population_age_65_and_over": 198,
    "latitude": 32.756039,
    "longitude": 129.887491
  },
  {
    "id": 98,
    "town_name": "片淵３丁目",
    "population_age_65_and_over": 301,
    "latitude": 32.761945,
    "longitude": 129.892965
  },
  {
    "id": 99,
    "town_name": "片淵４丁目",
    "population_age_65_and_over": 264,
    "latitude": 32.761169,
    "longitude": 129.889748
  },
  {
    "id": 100,
    "town_name": "片淵５丁目",
    "population_age_65_and_over": 324,
    "latitude": 32.767345,
    "longitude": 129.892913
  },
  {
    "id": 101,
    "town_name": "夫婦川町",
    "population_age_65_and_over": 199,
    "latitude": 32.754822,
    "longitude": 129.88964
  },
  {
    "id": 102,
    "town_name": "鳴滝１丁目",
    "population_age_65_and_over": 309,
    "latitude": 32.755801,
    "longitude": 129.895574
  },
  {
    "id": 103,
    "town_name": "鳴滝２丁目",
    "population_age_65_and_over": 144,
    "latitude": 32.756727,
    "longitude": 129.892022
  },
  {
    "id": 104,
    "town_name": "鳴滝３丁目",
    "population_age_65_and_over": 195,
    "latitude": 32.761884,
    "longitude": 129.900265
  },
  {
    "id": 105,
    "town_name": "木場町",
    "population_age_65_and_over": 118,
    "latitude": 32.773034,
    "longitude": 129.903794
  },
  {
    "id": 106,
    "town_name": "宝栄町",
    "population_age_65_and_over": 240,
    "latitude": 32.769688,
    "longitude": 129.859996
  },
  {
    "id": 107,
    "town_name": "岩見町",
    "population_age_65_and_over": 479,
    "latitude": 32.767632,
    "longitude": 129.853576
  },
  {
    "id": 108,
    "town_name": "春木町",
    "population_age_65_and_over": 225,
    "latitude": 32.762971,
    "longitude": 129.852792
  },
  {
    "id": 109,
    "town_name": "竹の久保町",
    "population_age_65_and_over": 202,
    "latitude": 32.765971,
    "longitude": 129.859931
  },
  {
    "id": 110,
    "town_name": "梁川町",
    "population_age_65_and_over": 287,
    "latitude": 32.762513,
    "longitude": 129.858817
  },
  {
    "id": 111,
    "town_name": "淵町",
    "population_age_65_and_over": 222,
    "latitude": 32.75943,
    "longitude": 129.855544
  },
  {
    "id": 112,
    "town_name": "稲佐町",
    "population_age_65_and_over": 512,
    "latitude": 32.756075,
    "longitude": 129.855261
  },
  {
    "id": 113,
    "town_name": "光町",
    "population_age_65_and_over": 130,
    "latitude": 32.755205,
    "longitude": 129.863958
  },
  {
    "id": 114,
    "town_name": "曙町",
    "population_age_65_and_over": 459,
    "latitude": 32.753668,
    "longitude": 129.858217
  },
  {
    "id": 115,
    "town_name": "弁天町",
    "population_age_65_and_over": 173,
    "latitude": 32.752893,
    "longitude": 129.864099
  },
  {
    "id": 116,
    "town_name": "旭町",
    "population_age_65_and_over": 436,
    "latitude": 32.750554,
    "longitude": 129.864054
  },
  {
    "id": 117,
    "town_name": "江の浦町",
    "population_age_65_and_over": 262,
    "latitude": 32.751731,
    "longitude": 129.856014
  },
  {
    "id": 118,
    "town_name": "平戸小屋町",
    "population_age_65_and_over": 258,
    "latitude": 32.751177,
    "longitude": 129.85849
  },
  {
    "id": 119,
    "town_name": "大鳥町",
    "population_age_65_and_over": 333,
    "latitude": 32.748526,
    "longitude": 129.858399
  },
  {
    "id": 120,
    "town_name": "丸尾町",
    "population_age_65_and_over": 37,
    "latitude": 32.74778,
    "longitude": 129.861931
  },
  {
    "id": 121,
    "town_name": "水の浦町",
    "population_age_65_and_over": 169,
    "latitude": 32.748933,
    "longitude": 129.853913
  },
  {
    "id": 122,
    "town_name": "大谷町",
    "population_age_65_and_over": 253,
    "latitude": 32.747068,
    "longitude": 129.853987
  },
  {
    "id": 123,
    "town_name": "飽の浦町",
    "population_age_65_and_over": 126,
    "latitude": 32.743229,
    "longitude": 129.85688
  },
  {
    "id": 124,
    "town_name": "秋月町",
    "population_age_65_and_over": 274,
    "latitude": 32.747477,
    "longitude": 129.849053
  },
  {
    "id": 125,
    "town_name": "入船町",
    "population_age_65_and_over": 373,
    "latitude": 32.745115,
    "longitude": 129.845627
  },
  {
    "id": 126,
    "town_name": "塩浜町",
    "population_age_65_and_over": 85,
    "latitude": 32.740856,
    "longitude": 129.850326
  },
  {
    "id": 127,
    "town_name": "岩瀬道町",
    "population_age_65_and_over": 85,
    "latitude": 32.737828,
    "longitude": 129.85458
  },
  {
    "id": 128,
    "town_name": "東立神町",
    "population_age_65_and_over": 193,
    "latitude": 32.737431,
    "longitude": 129.849935
  },
  {
    "id": 129,
    "town_name": "西立神町",
    "population_age_65_and_over": 111,
    "latitude": 32.734326,
    "longitude": 129.850883
  },
  {
    "id": 130,
    "town_name": "西泊町",
    "population_age_65_and_over": 136,
    "latitude": 32.728563,
    "longitude": 129.848716
  },
  {
    "id": 131,
    "town_name": "小江原１丁目",
    "population_age_65_and_over": 524,
    "latitude": 32.787118,
    "longitude": 129.837022
  },
  {
    "id": 132,
    "town_name": "小江原２丁目",
    "population_age_65_and_over": 688,
    "latitude": 32.779058,
    "longitude": 129.838712
  },
  {
    "id": 133,
    "town_name": "小江原３丁目",
    "population_age_65_and_over": 477,
    "latitude": 32.779452,
    "longitude": 129.832468
  },
  {
    "id": 134,
    "town_name": "小江原４丁目",
    "population_age_65_and_over": 787,
    "latitude": 32.782256,
    "longitude": 129.830864
  },
  {
    "id": 135,
    "town_name": "小江原５丁目",
    "population_age_65_and_over": 81,
    "latitude": 32.784525,
    "longitude": 129.827372
  },
  {
    "id": 136,
    "town_name": "船大工町",
    "population_age_65_and_over": 34,
    "latitude": 32.741967,
    "longitude": 129.878799
  },
  {
    "id": 137,
    "town_name": "本石灰町",
    "population_age_65_and_over": 60,
    "latitude": 32.74217,
    "longitude": 129.879973
  },
  {
    "id": 138,
    "town_name": "丸山町",
    "population_age_65_and_over": 153,
    "latitude": 32.741153,
    "longitude": 129.880569
  },
  {
    "id": 139,
    "town_name": "寄合町",
    "population_age_65_and_over": 175,
    "latitude": 32.739947,
    "longitude": 129.879648
  },
  {
    "id": 140,
    "town_name": "中小島１丁目",
    "population_age_65_and_over": 133,
    "latitude": 32.738564,
    "longitude": 129.881004
  },
  {
    "id": 141,
    "town_name": "中小島２丁目",
    "population_age_65_and_over": 394,
    "latitude": 32.7361,
    "longitude": 129.881357
  },
  {
    "id": 142,
    "town_name": "西小島１丁目",
    "population_age_65_and_over": 90,
    "latitude": 32.739998,
    "longitude": 129.878371
  },
  {
    "id": 143,
    "town_name": "西小島２丁目",
    "population_age_65_and_over": 235,
    "latitude": 32.736191,
    "longitude": 129.879502
  },
  {
    "id": 144,
    "town_name": "館内町",
    "population_age_65_and_over": 161,
    "latitude": 32.738959,
    "longitude": 129.877078
  },
  {
    "id": 145,
    "town_name": "稲田町",
    "population_age_65_and_over": 218,
    "latitude": 32.736855,
    "longitude": 129.877894
  },
  {
    "id": 146,
    "town_name": "中新町",
    "population_age_65_and_over": 239,
    "latitude": 32.735791,
    "longitude": 129.877038
  },
  {
    "id": 147,
    "town_name": "十人町",
    "population_age_65_and_over": 217,
    "latitude": 32.738801,
    "longitude": 129.875153
  },
  {
    "id": 148,
    "town_name": "籠町",
    "population_age_65_and_over": 146,
    "latitude": 32.740852,
    "longitude": 129.87648
  },
  {
    "id": 149,
    "town_name": "新地町",
    "population_age_65_and_over": 158,
    "latitude": 32.741123,
    "longitude": 129.874551
  },
  {
    "id": 150,
    "town_name": "梅香崎町",
    "population_age_65_and_over": 49,
    "latitude": 32.739962,
    "longitude": 129.874188
  },
  {
    "id": 151,
    "town_name": "相生町",
    "population_age_65_and_over": 191,
    "latitude": 32.733844,
    "longitude": 129.871781
  },
  {
    "id": 152,
    "town_name": "大浦町",
    "population_age_65_and_over": 497,
    "latitude": 32.736614,
    "longitude": 129.871739
  },
  {
    "id": 153,
    "town_name": "東山手町",
    "population_age_65_and_over": 132,
    "latitude": 32.737122,
    "longitude": 129.873968
  },
  {
    "id": 154,
    "town_name": "下町",
    "population_age_65_and_over": 93,
    "latitude": 32.734267,
    "longitude": 129.873306
  },
  {
    "id": 155,
    "town_name": "東山町",
    "population_age_65_and_over": 101,
    "latitude": 32.734022,
    "longitude": 129.874788
  },
  {
    "id": 156,
    "town_name": "大浦東町",
    "population_age_65_and_over": 66,
    "latitude": 32.732743,
    "longitude": 129.87341
  },
  {
    "id": 157,
    "town_name": "日の出町",
    "population_age_65_and_over": 224,
    "latitude": 32.731733,
    "longitude": 129.875294
  },
  {
    "id": 158,
    "town_name": "元町",
    "population_age_65_and_over": 122,
    "latitude": 32.733699,
    "longitude": 129.876845
  },
  {
    "id": 159,
    "town_name": "川上町",
    "population_age_65_and_over": 301,
    "latitude": 32.72789,
    "longitude": 129.878
  },
  {
    "id": 160,
    "town_name": "椎の木町",
    "population_age_65_and_over": 319,
    "latitude": 32.728725,
    "longitude": 129.88068
  },
  {
    "id": 161,
    "town_name": "高丘１丁目",
    "population_age_65_and_over": 114,
    "latitude": 32.732652,
    "longitude": 129.879459
  },
  {
    "id": 162,
    "town_name": "高丘２丁目",
    "population_age_65_and_over": 127,
    "latitude": 32.732524,
    "longitude": 129.882087
  },
  {
    "id": 163,
    "town_name": "南町",
    "population_age_65_and_over": 136,
    "latitude": 32.72958,
    "longitude": 129.88279
  },
  {
    "id": 164,
    "town_name": "南が丘町",
    "population_age_65_and_over": 196,
    "latitude": 32.727765,
    "longitude": 129.885623
  },
  {
    "id": 165,
    "town_name": "八景町",
    "population_age_65_and_over": 264,
    "latitude": 32.726151,
    "longitude": 129.883848
  },
  {
    "id": 166,
    "town_name": "星取１丁目",
    "population_age_65_and_over": 126,
    "latitude": 32.723195,
    "longitude": 129.881179
  },
  {
    "id": 167,
    "town_name": "星取２丁目",
    "population_age_65_and_over": 127,
    "latitude": 32.71885,
    "longitude": 129.88529
  },
  {
    "id": 168,
    "town_name": "出雲１丁目",
    "population_age_65_and_over": 251,
    "latitude": 32.728796,
    "longitude": 129.873477
  },
  {
    "id": 169,
    "town_name": "出雲２丁目",
    "population_age_65_and_over": 163,
    "latitude": 32.728616,
    "longitude": 129.869872
  },
  {
    "id": 170,
    "town_name": "出雲３丁目",
    "population_age_65_and_over": 135,
    "latitude": 32.724337,
    "longitude": 129.873883
  },
  {
    "id": 171,
    "town_name": "上田町",
    "population_age_65_and_over": 157,
    "latitude": 32.732101,
    "longitude": 129.871725
  },
  {
    "id": 172,
    "town_name": "南山手町",
    "population_age_65_and_over": 127,
    "latitude": 32.733205,
    "longitude": 129.869126
  },
  {
    "id": 173,
    "town_name": "松が枝町",
    "population_age_65_and_over": 150,
    "latitude": 32.736011,
    "longitude": 129.868172
  },
  {
    "id": 174,
    "town_name": "小曽根町",
    "population_age_65_and_over": 30,
    "latitude": 32.734088,
    "longitude": 129.866621
  },
  {
    "id": 175,
    "town_name": "浪の平町",
    "population_age_65_and_over": 34,
    "latitude": 32.732011,
    "longitude": 129.865011
  },
  {
    "id": 176,
    "town_name": "古河町",
    "population_age_65_and_over": 30,
    "latitude": 32.730005,
    "longitude": 129.863103
  },
  {
    "id": 177,
    "town_name": "東琴平１丁目",
    "population_age_65_and_over": 120,
    "latitude": 32.729438,
    "longitude": 129.865785
  },
  {
    "id": 178,
    "town_name": "東琴平２丁目",
    "population_age_65_and_over": 70,
    "latitude": 32.731141,
    "longitude": 129.868997
  },
  {
    "id": 179,
    "town_name": "西琴平町",
    "population_age_65_and_over": 144,
    "latitude": 32.728378,
    "longitude": 129.862817
  },
  {
    "id": 180,
    "town_name": "国分町",
    "population_age_65_and_over": 108,
    "latitude": 32.725995,
    "longitude": 129.858865
  },
  {
    "id": 181,
    "town_name": "小菅町",
    "population_age_65_and_over": 380,
    "latitude": 32.726106,
    "longitude": 129.864493
  },
  {
    "id": 182,
    "town_name": "戸町１丁目",
    "population_age_65_and_over": 248,
    "latitude": 32.724577,
    "longitude": 129.860871
  },
  {
    "id": 183,
    "town_name": "戸町２丁目",
    "population_age_65_and_over": 582,
    "latitude": 32.723684,
    "longitude": 129.865873
  },
  {
    "id": 184,
    "town_name": "戸町３丁目",
    "population_age_65_and_over": 235,
    "latitude": 32.718618,
    "longitude": 129.863843
  },
  {
    "id": 185,
    "town_name": "戸町４丁目",
    "population_age_65_and_over": 231,
    "latitude": 32.719373,
    "longitude": 129.858476
  },
  {
    "id": 186,
    "town_name": "戸町５丁目",
    "population_age_65_and_over": 5,
    "latitude": 32.716668,
    "longitude": 129.854957
  },
  {
    "id": 187,
    "town_name": "上戸町",
    "population_age_65_and_over": 30,
    "latitude": 32.7235,
    "longitude": 129.870261
  },
  {
    "id": 188,
    "town_name": "上戸町１丁目",
    "population_age_65_and_over": 246,
    "latitude": 32.717985,
    "longitude": 129.868747
  },
  {
    "id": 189,
    "town_name": "上戸町２丁目",
    "population_age_65_and_over": 328,
    "latitude": 32.715715,
    "longitude": 129.867638
  },
  {
    "id": 190,
    "town_name": "上戸町３丁目",
    "population_age_65_and_over": 130,
    "latitude": 32.716567,
    "longitude": 129.870097
  },
  {
    "id": 191,
    "town_name": "上戸町４丁目",
    "population_age_65_and_over": 156,
    "latitude": 32.707545,
    "longitude": 129.883174
  },
  {
    "id": 192,
    "town_name": "新戸町１丁目",
    "population_age_65_and_over": 412,
    "latitude": 32.712822,
    "longitude": 129.860792
  },
  {
    "id": 193,
    "town_name": "新戸町２丁目",
    "population_age_65_and_over": 241,
    "latitude": 32.712588,
    "longitude": 129.865956
  },
  {
    "id": 194,
    "town_name": "新戸町３丁目",
    "population_age_65_and_over": 373,
    "latitude": 32.707258,
    "longitude": 129.873319
  },
  {
    "id": 195,
    "town_name": "新戸町４丁目",
    "population_age_65_and_over": 49,
    "latitude": 32.7114,
    "longitude": 129.871981
  },
  {
    "id": 196,
    "town_name": "宝町",
    "population_age_65_and_over": 125,
    "latitude": 32.75894,
    "longitude": 129.867426
  },
  {
    "id": 197,
    "town_name": "幸町",
    "population_age_65_and_over": 19,
    "latitude": 32.758057,
    "longitude": 129.865311
  },
  {
    "id": 198,
    "town_name": "天神町",
    "population_age_65_and_over": 202,
    "latitude": 32.759262,
    "longitude": 129.86941
  },
  {
    "id": 199,
    "town_name": "銭座町",
    "population_age_65_and_over": 270,
    "latitude": 32.761156,
    "longitude": 129.868111
  },
  {
    "id": 200,
    "town_name": "上銭座町",
    "population_age_65_and_over": 147,
    "latitude": 32.763617,
    "longitude": 129.869481
  },
  {
    "id": 201,
    "town_name": "緑町",
    "population_age_65_and_over": 126,
    "latitude": 32.763106,
    "longitude": 129.867237
  },
  {
    "id": 202,
    "town_name": "茂里町",
    "population_age_65_and_over": 108,
    "latitude": 32.765779,
    "longitude": 129.862516
  },
  {
    "id": 203,
    "town_name": "目覚町",
    "population_age_65_and_over": 263,
    "latitude": 32.76342,
    "longitude": 129.86557
  },
  {
    "id": 204,
    "town_name": "岩川町",
    "population_age_65_and_over": 311,
    "latitude": 32.766636,
    "longitude": 129.865469
  },
  {
    "id": 205,
    "town_name": "川口町",
    "population_age_65_and_over": 229,
    "latitude": 32.767966,
    "longitude": 129.863549
  },
  {
    "id": 206,
    "town_name": "浜口町",
    "population_age_65_and_over": 202,
    "latitude": 32.769237,
    "longitude": 129.865419
  },
  {
    "id": 207,
    "town_name": "平野町",
    "population_age_65_and_over": 374,
    "latitude": 32.77153,
    "longitude": 129.86514
  },
  {
    "id": 208,
    "town_name": "平和町",
    "population_age_65_and_over": 397,
    "latitude": 32.774946,
    "longitude": 129.865625
  },
  {
    "id": 209,
    "town_name": "坂本１丁目",
    "population_age_65_and_over": 218,
    "latitude": 32.770214,
    "longitude": 129.868548
  },
  {
    "id": 210,
    "town_name": "坂本２丁目",
    "population_age_65_and_over": 281,
    "latitude": 32.766186,
    "longitude": 129.872192
  },
  {
    "id": 211,
    "town_name": "坂本３丁目",
    "population_age_65_and_over": 149,
    "latitude": 32.769723,
    "longitude": 129.871657
  },
  {
    "id": 212,
    "town_name": "松山町",
    "population_age_65_and_over": 73,
    "latitude": 32.774064,
    "longitude": 129.86181
  },
  {
    "id": 213,
    "town_name": "岡町",
    "population_age_65_and_over": 126,
    "latitude": 32.777407,
    "longitude": 129.862856
  },
  {
    "id": 214,
    "town_name": "橋口町",
    "population_age_65_and_over": 325,
    "latitude": 32.778686,
    "longitude": 129.864769
  },
  {
    "id": 215,
    "town_name": "上野町",
    "population_age_65_and_over": 269,
    "latitude": 32.778771,
    "longitude": 129.867645
  },
  {
    "id": 216,
    "town_name": "本原町",
    "population_age_65_and_over": 458,
    "latitude": 32.781213,
    "longitude": 129.868044
  },
  {
    "id": 217,
    "town_name": "扇町",
    "population_age_65_and_over": 373,
    "latitude": 32.784213,
    "longitude": 129.868545
  },
  {
    "id": 218,
    "town_name": "石神町",
    "population_age_65_and_over": 564,
    "latitude": 32.785858,
    "longitude": 129.872109
  },
  {
    "id": 219,
    "town_name": "辻町",
    "population_age_65_and_over": 426,
    "latitude": 32.785203,
    "longitude": 129.876739
  },
  {
    "id": 220,
    "town_name": "小峰町",
    "population_age_65_and_over": 639,
    "latitude": 32.781747,
    "longitude": 129.872292
  },
  {
    "id": 221,
    "town_name": "三原１丁目",
    "population_age_65_and_over": 827,
    "latitude": 32.781643,
    "longitude": 129.879277
  },
  {
    "id": 222,
    "town_name": "三原２丁目",
    "population_age_65_and_over": 870,
    "latitude": 32.783464,
    "longitude": 129.883756
  },
  {
    "id": 223,
    "town_name": "三原３丁目",
    "population_age_65_and_over": 116,
    "latitude": 32.777212,
    "longitude": 129.883763
  },
  {
    "id": 224,
    "town_name": "高尾町",
    "population_age_65_and_over": 515,
    "latitude": 32.778313,
    "longitude": 129.874709
  },
  {
    "id": 225,
    "town_name": "本尾町",
    "population_age_65_and_over": 476,
    "latitude": 32.775583,
    "longitude": 129.870973
  },
  {
    "id": 226,
    "town_name": "江平１丁目",
    "population_age_65_and_over": 328,
    "latitude": 32.769839,
    "longitude": 129.875238
  },
  {
    "id": 227,
    "town_name": "江平２丁目",
    "population_age_65_and_over": 195,
    "latitude": 32.773178,
    "longitude": 129.873409
  },
  {
    "id": 228,
    "town_name": "江平３丁目",
    "population_age_65_and_over": 191,
    "latitude": 32.771652,
    "longitude": 129.879712
  },
  {
    "id": 229,
    "town_name": "大橋町",
    "population_age_65_and_over": 512,
    "latitude": 32.781701,
    "longitude": 129.86259
  },
  {
    "id": 230,
    "town_name": "城栄町",
    "population_age_65_and_over": 541,
    "latitude": 32.776573,
    "longitude": 129.856031
  },
  {
    "id": 231,
    "town_name": "青山町",
    "population_age_65_and_over": 783,
    "latitude": 32.77648,
    "longitude": 129.848274
  },
  {
    "id": 232,
    "town_name": "若草町",
    "population_age_65_and_over": 325,
    "latitude": 32.774896,
    "longitude": 129.852994
  },
  {
    "id": 233,
    "town_name": "金堀町",
    "population_age_65_and_over": 578,
    "latitude": 32.774267,
    "longitude": 129.844259
  },
  {
    "id": 234,
    "town_name": "城山台１丁目",
    "population_age_65_and_over": 674,
    "latitude": 32.770583,
    "longitude": 129.842943
  },
  {
    "id": 235,
    "town_name": "城山台２丁目",
    "population_age_65_and_over": 457,
    "latitude": 32.772293,
    "longitude": 129.837032
  },
  {
    "id": 236,
    "town_name": "花園町",
    "population_age_65_and_over": 285,
    "latitude": 32.77152,
    "longitude": 129.850704
  },
  {
    "id": 237,
    "town_name": "立岩町",
    "population_age_65_and_over": 459,
    "latitude": 32.76487,
    "longitude": 129.845998
  },
  {
    "id": 238,
    "town_name": "富士見町",
    "population_age_65_and_over": 406,
    "latitude": 32.772242,
    "longitude": 129.854414
  },
  {
    "id": 239,
    "town_name": "城山町",
    "population_age_65_and_over": 485,
    "latitude": 32.772602,
    "longitude": 129.857962
  },
  {
    "id": 240,
    "town_name": "新小が倉１丁目",
    "population_age_65_and_over": 138,
    "latitude": 32.708518,
    "longitude": 129.859459
  },
  {
    "id": 241,
    "town_name": "新小が倉２丁目",
    "population_age_65_and_over": 125,
    "latitude": 32.70816,
    "longitude": 129.861974
  },
  {
    "id": 242,
    "town_name": "小ケ倉町１丁目",
    "population_age_65_and_over": 171,
    "latitude": 32.709472,
    "longitude": 129.853141
  },
  {
    "id": 243,
    "town_name": "小ケ倉町２丁目",
    "population_age_65_and_over": 404,
    "latitude": 32.705347,
    "longitude": 129.852917
  },
  {
    "id": 244,
    "town_name": "小ケ倉町３丁目",
    "population_age_65_and_over": 186,
    "latitude": 32.702596,
    "longitude": 129.848377
  },
  {
    "id": 245,
    "town_name": "大山町",
    "population_age_65_and_over": 62,
    "latitude": 32.697046,
    "longitude": 129.875056
  },
  {
    "id": 246,
    "town_name": "ﾀﾞｲﾔﾗﾝﾄﾞ１丁目",
    "population_age_65_and_over": 449,
    "latitude": 32.703943,
    "longitude": 129.863482
  },
  {
    "id": 247,
    "town_name": "ﾀﾞｲﾔﾗﾝﾄﾞ２丁目",
    "population_age_65_and_over": 588,
    "latitude": 32.703924,
    "longitude": 129.858088
  },
  {
    "id": 248,
    "town_name": "ﾀﾞｲﾔﾗﾝﾄﾞ３丁目",
    "population_age_65_and_over": 605,
    "latitude": 32.700941,
    "longitude": 129.854156
  },
  {
    "id": 249,
    "town_name": "ﾀﾞｲﾔﾗﾝﾄﾞ４丁目",
    "population_age_65_and_over": 351,
    "latitude": 32.698958,
    "longitude": 129.856608
  },
  {
    "id": 250,
    "town_name": "木鉢町１丁目",
    "population_age_65_and_over": 190,
    "latitude": 32.724875,
    "longitude": 129.842289
  },
  {
    "id": 251,
    "town_name": "木鉢町２丁目",
    "population_age_65_and_over": 306,
    "latitude": 32.73362,
    "longitude": 129.840848
  },
  {
    "id": 252,
    "town_name": "みなと坂１丁目",
    "population_age_65_and_over": 136,
    "latitude": 32.730143,
    "longitude": 129.835688
  },
  {
    "id": 253,
    "town_name": "みなと坂２丁目",
    "population_age_65_and_over": 97,
    "latitude": 32.734665,
    "longitude": 129.836298
  },
  {
    "id": 254,
    "town_name": "小瀬戸町",
    "population_age_65_and_over": 403,
    "latitude": 32.72684,
    "longitude": 129.834553
  },
  {
    "id": 255,
    "town_name": "神ノ島町１丁目",
    "population_age_65_and_over": 216,
    "latitude": 32.725877,
    "longitude": 129.828471
  },
  {
    "id": 256,
    "town_name": "神ノ島町２丁目",
    "population_age_65_and_over": 77,
    "latitude": 32.71852,
    "longitude": 129.827142
  },
  {
    "id": 257,
    "town_name": "神ノ島町３丁目",
    "population_age_65_and_over": 36,
    "latitude": 32.723141,
    "longitude": 129.823215
  },
  {
    "id": 258,
    "town_name": "岩屋町",
    "population_age_65_and_over": 813,
    "latitude": 32.797372,
    "longitude": 129.846388
  },
  {
    "id": 259,
    "town_name": "住吉町",
    "population_age_65_and_over": 479,
    "latitude": 32.792992,
    "longitude": 129.860398
  },
  {
    "id": 260,
    "town_name": "住吉台町",
    "population_age_65_and_over": 128,
    "latitude": 32.795703,
    "longitude": 129.859107
  },
  {
    "id": 261,
    "town_name": "中園町",
    "population_age_65_and_over": 290,
    "latitude": 32.792194,
    "longitude": 129.858749
  },
  {
    "id": 262,
    "town_name": "若葉町",
    "population_age_65_and_over": 173,
    "latitude": 32.787786,
    "longitude": 129.861271
  },
  {
    "id": 263,
    "town_name": "家野町",
    "population_age_65_and_over": 348,
    "latitude": 32.788097,
    "longitude": 129.862499
  },
  {
    "id": 264,
    "town_name": "千歳町",
    "population_age_65_and_over": 566,
    "latitude": 32.789787,
    "longitude": 129.86226
  },
  {
    "id": 265,
    "town_name": "花丘町",
    "population_age_65_and_over": 350,
    "latitude": 32.792238,
    "longitude": 129.86393
  },
  {
    "id": 266,
    "town_name": "泉町",
    "population_age_65_and_over": 15,
    "latitude": 32.804406,
    "longitude": 129.867316
  },
  {
    "id": 267,
    "town_name": "泉１丁目",
    "population_age_65_and_over": 222,
    "latitude": 32.794858,
    "longitude": 129.865129
  },
  {
    "id": 268,
    "town_name": "泉２丁目",
    "population_age_65_and_over": 471,
    "latitude": 32.797592,
    "longitude": 129.864286
  },
  {
    "id": 269,
    "town_name": "泉３丁目",
    "population_age_65_and_over": 184,
    "latitude": 32.797302,
    "longitude": 129.860485
  },
  {
    "id": 270,
    "town_name": "文教町",
    "population_age_65_and_over": 261,
    "latitude": 32.786923,
    "longitude": 129.866995
  },
  {
    "id": 271,
    "town_name": "赤迫１丁目",
    "population_age_65_and_over": 412,
    "latitude": 32.79528,
    "longitude": 129.857061
  },
  {
    "id": 272,
    "town_name": "赤迫２丁目",
    "population_age_65_and_over": 339,
    "latitude": 32.797787,
    "longitude": 129.856877
  },
  {
    "id": 273,
    "town_name": "赤迫３丁目",
    "population_age_65_and_over": 258,
    "latitude": 32.800962,
    "longitude": 129.854873
  },
  {
    "id": 274,
    "town_name": "西北町",
    "population_age_65_and_over": 657,
    "latitude": 32.796984,
    "longitude": 129.850695
  },
  {
    "id": 275,
    "town_name": "若竹町",
    "population_age_65_and_over": 537,
    "latitude": 32.793652,
    "longitude": 129.848257
  },
  {
    "id": 276,
    "town_name": "柳谷町",
    "population_age_65_and_over": 414,
    "latitude": 32.792566,
    "longitude": 129.85505
  },
  {
    "id": 277,
    "town_name": "錦１丁目",
    "population_age_65_and_over": 158,
    "latitude": 32.7899,
    "longitude": 129.856011
  },
  {
    "id": 278,
    "town_name": "錦２丁目",
    "population_age_65_and_over": 356,
    "latitude": 32.78941,
    "longitude": 129.853767
  },
  {
    "id": 279,
    "town_name": "錦３丁目",
    "population_age_65_and_over": 215,
    "latitude": 32.789602,
    "longitude": 129.846406
  },
  {
    "id": 280,
    "town_name": "音無町",
    "population_age_65_and_over": 360,
    "latitude": 32.789335,
    "longitude": 129.858324
  },
  {
    "id": 281,
    "town_name": "西町",
    "population_age_65_and_over": 466,
    "latitude": 32.785799,
    "longitude": 129.849536
  },
  {
    "id": 282,
    "town_name": "白鳥町",
    "population_age_65_and_over": 175,
    "latitude": 32.7861,
    "longitude": 129.855551
  },
  {
    "id": 283,
    "town_name": "清水町",
    "population_age_65_and_over": 498,
    "latitude": 32.78593,
    "longitude": 129.859154
  },
  {
    "id": 284,
    "town_name": "緑が丘町",
    "population_age_65_and_over": 206,
    "latitude": 32.782684,
    "longitude": 129.855632
  },
  {
    "id": 285,
    "town_name": "江里町",
    "population_age_65_and_over": 450,
    "latitude": 32.780766,
    "longitude": 129.858381
  },
  {
    "id": 286,
    "town_name": "三芳町",
    "population_age_65_and_over": 280,
    "latitude": 32.781124,
    "longitude": 129.860424
  },
  {
    "id": 287,
    "town_name": "油木町",
    "population_age_65_and_over": 916,
    "latitude": 32.782252,
    "longitude": 129.847827
  },
  {
    "id": 288,
    "town_name": "昭和１丁目",
    "population_age_65_and_over": 163,
    "latitude": 32.791113,
    "longitude": 129.867518
  },
  {
    "id": 289,
    "town_name": "昭和２丁目",
    "population_age_65_and_over": 242,
    "latitude": 32.793244,
    "longitude": 129.870802
  },
  {
    "id": 290,
    "town_name": "昭和３丁目",
    "population_age_65_and_over": 295,
    "latitude": 32.798279,
    "longitude": 129.872653
  },
  {
    "id": 291,
    "town_name": "女の都１丁目",
    "population_age_65_and_over": 242,
    "latitude": 32.797754,
    "longitude": 129.876529
  },
  {
    "id": 292,
    "town_name": "女の都２丁目",
    "population_age_65_and_over": 461,
    "latitude": 32.802431,
    "longitude": 129.880166
  },
  {
    "id": 293,
    "town_name": "女の都３丁目",
    "population_age_65_and_over": 381,
    "latitude": 32.806055,
    "longitude": 129.879807
  },
  {
    "id": 294,
    "town_name": "女の都４丁目",
    "population_age_65_and_over": 534,
    "latitude": 32.802622,
    "longitude": 129.875442
  },
  {
    "id": 295,
    "town_name": "大手１丁目",
    "population_age_65_and_over": 375,
    "latitude": 32.790539,
    "longitude": 129.873928
  },
  {
    "id": 296,
    "town_name": "大手２丁目",
    "population_age_65_and_over": 540,
    "latitude": 32.789093,
    "longitude": 129.878188
  },
  {
    "id": 297,
    "town_name": "大手３丁目",
    "population_age_65_and_over": 192,
    "latitude": 32.792023,
    "longitude": 129.877427
  },
  {
    "id": 298,
    "town_name": "三川町",
    "population_age_65_and_over": 700,
    "latitude": 32.787923,
    "longitude": 129.895434
  },
  {
    "id": 299,
    "town_name": "川平町",
    "population_age_65_and_over": 810,
    "latitude": 32.801392,
    "longitude": 129.890218
  },
  {
    "id": 300,
    "town_name": "けやき台町",
    "population_age_65_and_over": 55,
    "latitude": 32.796701,
    "longitude": 129.879673
  },
  {
    "id": 301,
    "town_name": "三ツ山町",
    "population_age_65_and_over": 583,
    "latitude": 32.802842,
    "longitude": 129.907329
  },
  {
    "id": 302,
    "town_name": "畦別当町",
    "population_age_65_and_over": 26,
    "latitude": 32.812614,
    "longitude": 129.920849
  },
  {
    "id": 303,
    "town_name": "滑石１丁目",
    "population_age_65_and_over": 653,
    "latitude": 32.808842,
    "longitude": 129.847024
  },
  {
    "id": 304,
    "town_name": "滑石２丁目",
    "population_age_65_and_over": 639,
    "latitude": 32.808176,
    "longitude": 129.843602
  },
  {
    "id": 305,
    "town_name": "滑石３丁目",
    "population_age_65_and_over": 873,
    "latitude": 32.80983,
    "longitude": 129.834581
  },
  {
    "id": 306,
    "town_name": "滑石４丁目",
    "population_age_65_and_over": 838,
    "latitude": 32.804353,
    "longitude": 129.82202
  },
  {
    "id": 307,
    "town_name": "滑石５丁目",
    "population_age_65_and_over": 582,
    "latitude": 32.805016,
    "longitude": 129.833428
  },
  {
    "id": 308,
    "town_name": "滑石６丁目",
    "population_age_65_and_over": 670,
    "latitude": 32.803865,
    "longitude": 129.835686
  },
  {
    "id": 309,
    "town_name": "大園町",
    "population_age_65_and_over": 977,
    "latitude": 32.804165,
    "longitude": 129.839265
  },
  {
    "id": 310,
    "town_name": "大宮町",
    "population_age_65_and_over": 304,
    "latitude": 32.797912,
    "longitude": 129.834088
  },
  {
    "id": 311,
    "town_name": "北栄町",
    "population_age_65_and_over": 393,
    "latitude": 32.800307,
    "longitude": 129.827964
  },
  {
    "id": 312,
    "town_name": "北陽町",
    "population_age_65_and_over": 441,
    "latitude": 32.811114,
    "longitude": 129.822512
  },
  {
    "id": 313,
    "town_name": "虹が丘町",
    "population_age_65_and_over": 596,
    "latitude": 32.797863,
    "longitude": 129.841504
  },
  {
    "id": 314,
    "town_name": "横尾１丁目",
    "population_age_65_and_over": 227,
    "latitude": 32.81196,
    "longitude": 129.838113
  },
  {
    "id": 315,
    "town_name": "横尾２丁目",
    "population_age_65_and_over": 513,
    "latitude": 32.812735,
    "longitude": 129.833668
  },
  {
    "id": 316,
    "town_name": "横尾３丁目",
    "population_age_65_and_over": 592,
    "latitude": 32.815058,
    "longitude": 129.836677
  },
  {
    "id": 317,
    "town_name": "横尾４丁目",
    "population_age_65_and_over": 291,
    "latitude": 32.816382,
    "longitude": 129.830685
  },
  {
    "id": 318,
    "town_name": "横尾５丁目",
    "population_age_65_and_over": 443,
    "latitude": 32.814988,
    "longitude": 129.826856
  },
  {
    "id": 319,
    "town_name": "葉山１丁目",
    "population_age_65_and_over": 672,
    "latitude": 32.80468,
    "longitude": 129.849055
  },
  {
    "id": 320,
    "town_name": "葉山２丁目",
    "population_age_65_and_over": 525,
    "latitude": 32.803732,
    "longitude": 129.843672
  },
  {
    "id": 321,
    "town_name": "エミネント葉山町",
    "population_age_65_and_over": 420,
    "latitude": 32.801618,
    "longitude": 129.844174
  },
  {
    "id": 322,
    "town_name": "大浜町",
    "population_age_65_and_over": 1445,
    "latitude": 32.750937,
    "longitude": 129.839113
  },
  {
    "id": 323,
    "town_name": "小浦町",
    "population_age_65_and_over": 627,
    "latitude": 32.756614,
    "longitude": 129.829495
  },
  {
    "id": 324,
    "town_name": "福田本町",
    "population_age_65_and_over": 623,
    "latitude": 32.753156,
    "longitude": 129.819092
  },
  {
    "id": 325,
    "town_name": "小江町",
    "population_age_65_and_over": 204,
    "latitude": 32.765257,
    "longitude": 129.816433
  },
  {
    "id": 326,
    "town_name": "柿泊町",
    "population_age_65_and_over": 247,
    "latitude": 32.773136,
    "longitude": 129.807034
  },
  {
    "id": 327,
    "town_name": "手熊町",
    "population_age_65_and_over": 149,
    "latitude": 32.782174,
    "longitude": 129.802278
  },
  {
    "id": 328,
    "town_name": "上浦町",
    "population_age_65_and_over": 47,
    "latitude": 32.788166,
    "longitude": 129.817856
  },
  {
    "id": 329,
    "town_name": "茂木町",
    "population_age_65_and_over": 1301,
    "latitude": 32.704498,
    "longitude": 129.900824
  },
  {
    "id": 330,
    "town_name": "田上１丁目",
    "population_age_65_and_over": 284,
    "latitude": 32.72353,
    "longitude": 129.895604
  },
  {
    "id": 331,
    "town_name": "田上２丁目",
    "population_age_65_and_over": 185,
    "latitude": 32.725632,
    "longitude": 129.886515
  },
  {
    "id": 332,
    "town_name": "田上３丁目",
    "population_age_65_and_over": 384,
    "latitude": 32.721901,
    "longitude": 129.891423
  },
  {
    "id": 333,
    "town_name": "田上４丁目",
    "population_age_65_and_over": 252,
    "latitude": 32.722052,
    "longitude": 129.886506
  },
  {
    "id": 334,
    "town_name": "早坂町",
    "population_age_65_and_over": 111,
    "latitude": 32.727375,
    "longitude": 129.906397
  },
  {
    "id": 335,
    "town_name": "北浦町",
    "population_age_65_and_over": 332,
    "latitude": 32.718165,
    "longitude": 129.91384
  },
  {
    "id": 336,
    "town_name": "飯香浦町",
    "population_age_65_and_over": 235,
    "latitude": 32.725328,
    "longitude": 129.929208
  },
  {
    "id": 337,
    "town_name": "太田尾町",
    "population_age_65_and_over": 145,
    "latitude": 32.735193,
    "longitude": 129.936671
  },
  {
    "id": 338,
    "town_name": "田手原町",
    "population_age_65_and_over": 355,
    "latitude": 32.74073,
    "longitude": 129.911085
  },
  {
    "id": 339,
    "town_name": "宮摺町",
    "population_age_65_and_over": 75,
    "latitude": 32.684524,
    "longitude": 129.892959
  },
  {
    "id": 340,
    "town_name": "大崎町",
    "population_age_65_and_over": 118,
    "latitude": 32.672634,
    "longitude": 129.890059
  },
  {
    "id": 341,
    "town_name": "千々町",
    "population_age_65_and_over": 124,
    "latitude": 32.661974,
    "longitude": 129.87149
  },
  {
    "id": 342,
    "town_name": "式見町",
    "population_age_65_and_over": 305,
    "latitude": 32.787626,
    "longitude": 129.790831
  },
  {
    "id": 343,
    "town_name": "向町",
    "population_age_65_and_over": 361,
    "latitude": 32.786459,
    "longitude": 129.797236
  },
  {
    "id": 344,
    "town_name": "相川町",
    "population_age_65_and_over": 145,
    "latitude": 32.800468,
    "longitude": 129.788654
  },
  {
    "id": 345,
    "town_name": "見崎町",
    "population_age_65_and_over": 42,
    "latitude": 32.803835,
    "longitude": 129.778733
  },
  {
    "id": 346,
    "town_name": "牧野町",
    "population_age_65_and_over": 36,
    "latitude": 32.797856,
    "longitude": 129.799222
  },
  {
    "id": 347,
    "town_name": "園田町",
    "population_age_65_and_over": 73,
    "latitude": 32.797127,
    "longitude": 129.811427
  },
  {
    "id": 348,
    "town_name": "四杖町",
    "population_age_65_and_over": 321,
    "latitude": 32.797004,
    "longitude": 129.790494
  },
  {
    "id": 349,
    "town_name": "芒塚町",
    "population_age_65_and_over": 284,
    "latitude": 32.752985,
    "longitude": 129.927741
  },
  {
    "id": 350,
    "town_name": "宿町",
    "population_age_65_and_over": 1051,
    "latitude": 32.763263,
    "longitude": 129.934806
  },
  {
    "id": 351,
    "town_name": "界１丁目",
    "population_age_65_and_over": 200,
    "latitude": 32.752766,
    "longitude": 129.933647
  },
  {
    "id": 352,
    "town_name": "界２丁目",
    "population_age_65_and_over": 330,
    "latitude": 32.755279,
    "longitude": 129.940767
  },
  {
    "id": 353,
    "town_name": "網場町",
    "population_age_65_and_over": 456,
    "latitude": 32.751043,
    "longitude": 129.943273
  },
  {
    "id": 354,
    "town_name": "春日町",
    "population_age_65_and_over": 64,
    "latitude": 32.743497,
    "longitude": 129.951345
  },
  {
    "id": 355,
    "town_name": "潮見町",
    "population_age_65_and_over": 46,
    "latitude": 32.74056,
    "longitude": 129.942709
  },
  {
    "id": 356,
    "town_name": "矢上町",
    "population_age_65_and_over": 442,
    "latitude": 32.776193,
    "longitude": 129.951355
  },
  {
    "id": 357,
    "town_name": "平間町",
    "population_age_65_and_over": 395,
    "latitude": 32.797028,
    "longitude": 129.940425
  },
  {
    "id": 358,
    "town_name": "高城台１丁目",
    "population_age_65_and_over": 115,
    "latitude": 32.776834,
    "longitude": 129.947733
  },
  {
    "id": 359,
    "town_name": "高城台２丁目",
    "population_age_65_and_over": 73,
    "latitude": 32.778782,
    "longitude": 129.943324
  },
  {
    "id": 360,
    "town_name": "鶴の尾町",
    "population_age_65_and_over": 387,
    "latitude": 32.793624,
    "longitude": 129.94926
  },
  {
    "id": 361,
    "town_name": "現川町",
    "population_age_65_and_over": 256,
    "latitude": 32.792212,
    "longitude": 129.922377
  },
  {
    "id": 362,
    "town_name": "田中町",
    "population_age_65_and_over": 1660,
    "latitude": 32.771125,
    "longitude": 129.931912
  },
  {
    "id": 363,
    "town_name": "東町",
    "population_age_65_and_over": 667,
    "latitude": 32.782899,
    "longitude": 129.959455
  },
  {
    "id": 364,
    "town_name": "かき道１丁目",
    "population_age_65_and_over": 265,
    "latitude": 32.770821,
    "longitude": 129.953788
  },
  {
    "id": 365,
    "town_name": "かき道２丁目",
    "population_age_65_and_over": 626,
    "latitude": 32.77304,
    "longitude": 129.958367
  },
  {
    "id": 366,
    "town_name": "かき道３丁目",
    "population_age_65_and_over": 454,
    "latitude": 32.772107,
    "longitude": 129.964266
  },
  {
    "id": 367,
    "town_name": "かき道４丁目",
    "population_age_65_and_over": 753,
    "latitude": 32.767754,
    "longitude": 129.963702
  },
  {
    "id": 368,
    "town_name": "かき道５丁目",
    "population_age_65_and_over": 274,
    "latitude": 32.767953,
    "longitude": 129.959804
  },
  {
    "id": 369,
    "town_name": "かき道６丁目",
    "population_age_65_and_over": 58,
    "latitude": 32.765325,
    "longitude": 129.96082
  },
  {
    "id": 370,
    "town_name": "松原町",
    "population_age_65_and_over": 236,
    "latitude": 32.805865,
    "longitude": 129.946953
  },
  {
    "id": 371,
    "town_name": "古賀町",
    "population_age_65_and_over": 438,
    "latitude": 32.80494,
    "longitude": 129.957236
  },
  {
    "id": 372,
    "town_name": "つつじが丘１丁目",
    "population_age_65_and_over": 232,
    "latitude": 32.803594,
    "longitude": 129.961312
  },
  {
    "id": 373,
    "town_name": "つつじが丘２丁目",
    "population_age_65_and_over": 195,
    "latitude": 32.804277,
    "longitude": 129.959724
  },
  {
    "id": 374,
    "town_name": "つつじが丘３丁目",
    "population_age_65_and_over": 156,
    "latitude": 32.807943,
    "longitude": 129.95955
  },
  {
    "id": 375,
    "town_name": "つつじが丘４丁目",
    "population_age_65_and_over": 261,
    "latitude": 32.80752,
    "longitude": 129.962105
  },
  {
    "id": 376,
    "town_name": "つつじが丘５丁目",
    "population_age_65_and_over": 166,
    "latitude": 32.809875,
    "longitude": 129.961762
  },
  {
    "id": 377,
    "town_name": "中里町",
    "population_age_65_and_over": 485,
    "latitude": 32.804724,
    "longitude": 129.967065
  },
  {
    "id": 378,
    "town_name": "船石町",
    "population_age_65_and_over": 163,
    "latitude": 32.798049,
    "longitude": 129.97921
  },
  {
    "id": 379,
    "town_name": "川内町",
    "population_age_65_and_over": 71,
    "latitude": 32.780078,
    "longitude": 129.986953
  },
  {
    "id": 380,
    "town_name": "上戸石町",
    "population_age_65_and_over": 333,
    "latitude": 32.778166,
    "longitude": 129.973074
  },
  {
    "id": 381,
    "town_name": "戸石町",
    "population_age_65_and_over": 740,
    "latitude": 32.766716,
    "longitude": 129.978611
  },
  {
    "id": 382,
    "town_name": "牧島町",
    "population_age_65_and_over": 264,
    "latitude": 32.75453,
    "longitude": 129.97293
  },
  {
    "id": 383,
    "town_name": "磯道町",
    "population_age_65_and_over": 434,
    "latitude": 32.697967,
    "longitude": 129.849736
  },
  {
    "id": 384,
    "town_name": "古道町",
    "population_age_65_and_over": 20,
    "latitude": 32.697068,
    "longitude": 129.858044
  },
  {
    "id": 385,
    "town_name": "三和町",
    "population_age_65_and_over": 279,
    "latitude": 32.693454,
    "longitude": 129.849317
  },
  {
    "id": 386,
    "town_name": "土井首町",
    "population_age_65_and_over": 214,
    "latitude": 32.696301,
    "longitude": 129.836811
  },
  {
    "id": 387,
    "town_name": "毛井首町",
    "population_age_65_and_over": 563,
    "latitude": 32.692474,
    "longitude": 129.838088
  },
  {
    "id": 388,
    "town_name": "平瀬町",
    "population_age_65_and_over": 147,
    "latitude": 32.688852,
    "longitude": 129.838373
  },
  {
    "id": 389,
    "town_name": "鶴見台１丁目",
    "population_age_65_and_over": 356,
    "latitude": 32.687449,
    "longitude": 129.841889
  },
  {
    "id": 390,
    "town_name": "鶴見台２丁目",
    "population_age_65_and_over": 489,
    "latitude": 32.69045,
    "longitude": 129.841667
  },
  {
    "id": 391,
    "town_name": "米山町",
    "population_age_65_and_over": 0,
    "latitude": 32.69032,
    "longitude": 129.844477
  },
  {
    "id": 392,
    "town_name": "柳田町",
    "population_age_65_and_over": 57,
    "latitude": 32.685592,
    "longitude": 129.846303
  },
  {
    "id": 393,
    "town_name": "草住町",
    "population_age_65_and_over": 86,
    "latitude": 32.688719,
    "longitude": 129.848937
  },
  {
    "id": 394,
    "town_name": "京太郎町",
    "population_age_65_and_over": 5,
    "latitude": 32.691974,
    "longitude": 129.853951
  },
  {
    "id": 395,
    "town_name": "竿浦町",
    "population_age_65_and_over": 385,
    "latitude": 32.674506,
    "longitude": 129.839886
  },
  {
    "id": 396,
    "town_name": "江川町",
    "population_age_65_and_over": 441,
    "latitude": 32.683239,
    "longitude": 129.843166
  },
  {
    "id": 397,
    "town_name": "末石町",
    "population_age_65_and_over": 176,
    "latitude": 32.683354,
    "longitude": 129.837585
  },
  {
    "id": 398,
    "town_name": "平山町",
    "population_age_65_and_over": 633,
    "latitude": 32.666221,
    "longitude": 129.841919
  },
  {
    "id": 399,
    "town_name": "平山台１丁目",
    "population_age_65_and_over": 437,
    "latitude": 32.662634,
    "longitude": 129.831153
  },
  {
    "id": 400,
    "town_name": "平山台２丁目",
    "population_age_65_and_over": 478,
    "latitude": 32.662983,
    "longitude": 129.827019
  },
  {
    "id": 401,
    "town_name": "深堀町１丁目",
    "population_age_65_and_over": 940,
    "latitude": 32.684582,
    "longitude": 129.831834
  },
  {
    "id": 402,
    "town_name": "深堀町２丁目",
    "population_age_65_and_over": 119,
    "latitude": 32.686919,
    "longitude": 129.82758
  },
  {
    "id": 403,
    "town_name": "深堀町３丁目",
    "population_age_65_and_over": 165,
    "latitude": 32.686566,
    "longitude": 129.825335
  },
  {
    "id": 404,
    "town_name": "深堀町４丁目",
    "population_age_65_and_over": 209,
    "latitude": 32.678937,
    "longitude": 129.828959
  },
  {
    "id": 405,
    "town_name": "深堀町５丁目",
    "population_age_65_and_over": 272,
    "latitude": 32.685644,
    "longitude": 129.822287
  },
  {
    "id": 406,
    "town_name": "深堀町６丁目",
    "population_age_65_and_over": 118,
    "latitude": 32.680343,
    "longitude": 129.820261
  },
  {
    "id": 407,
    "town_name": "大籠町",
    "population_age_65_and_over": 56,
    "latitude": 32.672195,
    "longitude": 129.822768
  },
  {
    "id": 408,
    "town_name": "香焼町",
    "population_age_65_and_over": 1314,
    "latitude": 32.689726,
    "longitude": 129.816289
  },
  {
    "id": 409,
    "town_name": "伊王島町１丁目",
    "population_age_65_and_over": 112,
    "latitude": 32.708593,
    "longitude": 129.766933
  },
  {
    "id": 410,
    "town_name": "伊王島町２丁目",
    "population_age_65_and_over": 193,
    "latitude": 32.696383,
    "longitude": 129.780682
  },
  {
    "id": 411,
    "town_name": "高島町",
    "population_age_65_and_over": 120,
    "latitude": 32.664954,
    "longitude": 129.751333
  },
  {
    "id": 412,
    "town_name": "以下宿町",
    "population_age_65_and_over": 56,
    "latitude": 32.618224,
    "longitude": 129.799088
  },
  {
    "id": 413,
    "town_name": "野母崎樺島町",
    "population_age_65_and_over": 216,
    "latitude": 32.560863,
    "longitude": 129.78263
  },
  {
    "id": 414,
    "town_name": "黒浜町",
    "population_age_65_and_over": 101,
    "latitude": 32.631165,
    "longitude": 129.801553
  },
  {
    "id": 415,
    "town_name": "高浜町",
    "population_age_65_and_over": 463,
    "latitude": 32.601542,
    "longitude": 129.786111
  },
  {
    "id": 416,
    "town_name": "南越町",
    "population_age_65_and_over": 81,
    "latitude": 32.593458,
    "longitude": 129.767874
  },
  {
    "id": 417,
    "town_name": "野母町",
    "population_age_65_and_over": 769,
    "latitude": 32.582143,
    "longitude": 129.744906
  },
  {
    "id": 418,
    "town_name": "脇岬町",
    "population_age_65_and_over": 629,
    "latitude": 32.590579,
    "longitude": 129.791271
  },
  {
    "id": 419,
    "town_name": "蚊焼町",
    "population_age_65_and_over": 877,
    "latitude": 32.646844,
    "longitude": 129.814853
  },
  {
    "id": 420,
    "town_name": "川原町",
    "population_age_65_and_over": 331,
    "latitude": 32.631627,
    "longitude": 129.822863
  },
  {
    "id": 421,
    "town_name": "為石町",
    "population_age_65_and_over": 634,
    "latitude": 32.644865,
    "longitude": 129.839972
  },
  {
    "id": 422,
    "town_name": "椿が丘町",
    "population_age_65_and_over": 409,
    "latitude": 32.645564,
    "longitude": 129.8287
  },
  {
    "id": 423,
    "town_name": "藤田尾町",
    "population_age_65_and_over": 36,
    "latitude": 32.649748,
    "longitude": 129.856287
  },
  {
    "id": 424,
    "town_name": "布巻町",
    "population_age_65_and_over": 439,
    "latitude": 32.655617,
    "longitude": 129.838135
  },
  {
    "id": 425,
    "town_name": "晴海台町",
    "population_age_65_and_over": 1138,
    "latitude": 32.661896,
    "longitude": 129.820891
  },
  {
    "id": 426,
    "town_name": "宮崎町",
    "population_age_65_and_over": 301,
    "latitude": 32.618282,
    "longitude": 129.820062
  },
  {
    "id": 427,
    "town_name": "松崎町",
    "population_age_65_and_over": 62,
    "latitude": 32.85348,
    "longitude": 129.743317
  },
  {
    "id": 428,
    "town_name": "三重町",
    "population_age_65_and_over": 427,
    "latitude": 32.831103,
    "longitude": 129.744208
  },
  {
    "id": 429,
    "town_name": "三重田町",
    "population_age_65_and_over": 78,
    "latitude": 32.828235,
    "longitude": 129.734529
  },
  {
    "id": 430,
    "town_name": "樫山町",
    "population_age_65_and_over": 269,
    "latitude": 32.812817,
    "longitude": 129.737133
  },
  {
    "id": 431,
    "town_name": "畦町",
    "population_age_65_and_over": 15,
    "latitude": 32.819009,
    "longitude": 129.740925
  },
  {
    "id": 432,
    "town_name": "三京町",
    "population_age_65_and_over": 343,
    "latitude": 32.834407,
    "longitude": 129.759198
  },
  {
    "id": 433,
    "town_name": "京泊１丁目",
    "population_age_65_and_over": 359,
    "latitude": 32.828452,
    "longitude": 129.774028
  },
  {
    "id": 434,
    "town_name": "京泊２丁目",
    "population_age_65_and_over": 315,
    "latitude": 32.822244,
    "longitude": 129.774635
  },
  {
    "id": 435,
    "town_name": "京泊３丁目",
    "population_age_65_and_over": 242,
    "latitude": 32.823151,
    "longitude": 129.767628
  },
  {
    "id": 436,
    "town_name": "さくらの里１丁目",
    "population_age_65_and_over": 190,
    "latitude": 32.832276,
    "longitude": 129.771313
  },
  {
    "id": 437,
    "town_name": "さくらの里２丁目",
    "population_age_65_and_over": 152,
    "latitude": 32.832283,
    "longitude": 129.765039
  },
  {
    "id": 438,
    "town_name": "さくらの里３丁目",
    "population_age_65_and_over": 7,
    "latitude": 32.827235,
    "longitude": 129.760708
  },
  {
    "id": 439,
    "town_name": "畝刈町",
    "population_age_65_and_over": 619,
    "latitude": 32.831102,
    "longitude": 129.781693
  },
  {
    "id": 440,
    "town_name": "豊洋台１丁目",
    "population_age_65_and_over": 107,
    "latitude": 32.831879,
    "longitude": 129.791754
  },
  {
    "id": 441,
    "town_name": "豊洋台２丁目",
    "population_age_65_and_over": 37,
    "latitude": 32.828481,
    "longitude": 129.793916
  },
  {
    "id": 442,
    "town_name": "鳴見町",
    "population_age_65_and_over": 388,
    "latitude": 32.821768,
    "longitude": 129.815461
  },
  {
    "id": 443,
    "town_name": "鳴見台１丁目",
    "population_age_65_and_over": 833,
    "latitude": 32.820415,
    "longitude": 129.806284
  },
  {
    "id": 444,
    "town_name": "鳴見台２丁目",
    "population_age_65_and_over": 798,
    "latitude": 32.822904,
    "longitude": 129.805516
  },
  {
    "id": 445,
    "town_name": "多以良町",
    "population_age_65_and_over": 348,
    "latitude": 32.813948,
    "longitude": 129.779095
  },
  {
    "id": 446,
    "town_name": "永田町",
    "population_age_65_and_over": 155,
    "latitude": 32.835469,
    "longitude": 129.725844
  },
  {
    "id": 447,
    "town_name": "上黒崎町",
    "population_age_65_and_over": 79,
    "latitude": 32.849746,
    "longitude": 129.724557
  },
  {
    "id": 448,
    "town_name": "下黒崎町",
    "population_age_65_and_over": 228,
    "latitude": 32.83878,
    "longitude": 129.711627
  },
  {
    "id": 449,
    "town_name": "西出津町",
    "population_age_65_and_over": 269,
    "latitude": 32.851923,
    "longitude": 129.699195
  },
  {
    "id": 450,
    "town_name": "東出津町",
    "population_age_65_and_over": 92,
    "latitude": 32.840443,
    "longitude": 129.705715
  },
  {
    "id": 451,
    "town_name": "新牧野町",
    "population_age_65_and_over": 178,
    "latitude": 32.859859,
    "longitude": 129.715822
  },
  {
    "id": 452,
    "town_name": "赤首町",
    "population_age_65_and_over": 45,
    "latitude": 32.851333,
    "longitude": 129.690678
  },
  {
    "id": 453,
    "town_name": "神浦扇山町",
    "population_age_65_and_over": 46,
    "latitude": 32.891664,
    "longitude": 129.728013
  },
  {
    "id": 454,
    "town_name": "神浦北大中尾町",
    "population_age_65_and_over": 10,
    "latitude": 32.894035,
    "longitude": 129.698306
  },
  {
    "id": 455,
    "town_name": "神浦上大中尾町",
    "population_age_65_and_over": 38,
    "latitude": 32.893149,
    "longitude": 129.708356
  },
  {
    "id": 456,
    "town_name": "神浦下大中尾町",
    "population_age_65_and_over": 44,
    "latitude": 32.877183,
    "longitude": 129.725391
  },
  {
    "id": 457,
    "town_name": "神浦丸尾町",
    "population_age_65_and_over": 94,
    "latitude": 32.883402,
    "longitude": 129.686182
  },
  {
    "id": 458,
    "town_name": "神浦江川町",
    "population_age_65_and_over": 142,
    "latitude": 32.881164,
    "longitude": 129.681588
  },
  {
    "id": 459,
    "town_name": "神浦上道徳町",
    "population_age_65_and_over": 31,
    "latitude": 32.888038,
    "longitude": 129.682478
  },
  {
    "id": 460,
    "town_name": "神浦下道徳町",
    "population_age_65_and_over": 6,
    "latitude": 32.886625,
    "longitude": 129.675497
  },
  {
    "id": 461,
    "town_name": "神浦口福町",
    "population_age_65_and_over": 10,
    "latitude": 32.895536,
    "longitude": 129.678799
  },
  {
    "id": 462,
    "town_name": "神浦向町",
    "population_age_65_and_over": 9,
    "latitude": 32.872238,
    "longitude": 129.703919
  },
  {
    "id": 463,
    "town_name": "神浦夏井町",
    "population_age_65_and_over": 30,
    "latitude": 32.873443,
    "longitude": 129.68161
  },
  {
    "id": 464,
    "town_name": "上大野町",
    "population_age_65_and_over": 44,
    "latitude": 32.86739,
    "longitude": 129.68311
  },
  {
    "id": 465,
    "town_name": "下大野町",
    "population_age_65_and_over": 50,
    "latitude": 32.860899,
    "longitude": 129.690009
  },
  {
    "id": 466,
    "town_name": "池島町",
    "population_age_65_and_over": 53,
    "latitude": 32.885527,
    "longitude": 129.599625
  },
  {
    "id": 467,
    "town_name": "琴海尾戸町",
    "population_age_65_and_over": 265,
    "latitude": 32.935656,
    "longitude": 129.80703
  },
  {
    "id": 468,
    "town_name": "琴海大平町",
    "population_age_65_and_over": 378,
    "latitude": 32.958773,
    "longitude": 129.799611
  },
  {
    "id": 469,
    "town_name": "琴海形上町",
    "population_age_65_and_over": 280,
    "latitude": 32.943932,
    "longitude": 129.762448
  },
  {
    "id": 470,
    "town_name": "長浦町",
    "population_age_65_and_over": 283,
    "latitude": 32.917203,
    "longitude": 129.764132
  },
  {
    "id": 471,
    "town_name": "琴海戸根原町",
    "population_age_65_and_over": 135,
    "latitude": 32.903196,
    "longitude": 129.798386
  },
  {
    "id": 472,
    "town_name": "琴海戸根町",
    "population_age_65_and_over": 556,
    "latitude": 32.894895,
    "longitude": 129.764636
  },
  {
    "id": 473,
    "town_name": "琴海村松町",
    "population_age_65_and_over": 536,
    "latitude": 32.875931,
    "longitude": 129.776853
  },
  {
    "id": 474,
    "town_name": "西海町",
    "population_age_65_and_over": 1884,
    "latitude": 32.859352,
    "longitude": 129.77479
  }
]