{
  "version": 0.6,
  "generator": "Perplexity Research + manual geocoding",
  "elements": [
    {
      "type": "node",
      "id": 1,
      "lat": 32.749,
      "lon": 129.8694,
      "tags": {
        "name": "イオン長崎店",
        "shop": "スーパー",
        "brand": "イオン",
        "area": "中心部",
        "addr:full": "長崎市新地町3-17"
      }
    },
    {
      "type": "node",
      "id": 2,
      "lat": 32.7543,
      "lon": 129.8765,
      "tags": {
        "name": "イオン チトセピア店",
        "shop": "スーパー",
        "brand": "イオン",
        "area": "中心部",
        "addr:full": "長崎市千歳町5-1"
      }
    },
    {
      "type": "node",
      "id": 3,
      "lat": 32.7621,
      "lon": 129.8958,
      "tags": {
        "name": "マックスバリュ MrMax長崎店",
        "shop": "スーパー",
        "brand": "マックスバリュ",
        "area": "中心部",
        "addr:full": "長崎市岩見町26-1"
      }
    },
    {
      "type": "node",
      "id": 4,
      "lat": 32.7528,
      "lon": 129.8861,
      "tags": {
        "name": "マックスバリュ 新大工町ファンスクエア店",
        "shop": "スーパー",
        "brand": "マックスバリュ",
        "area": "中心部",
        "addr:full": "長崎市新大工町5-35"
      }
    },
    {
      "type": "node",
      "id": 5,
      "lat": 32.7523,
      "lon": 129.8695,
      "tags": {
        "name": "西友 長崎駅店",
        "shop": "スーパー",
        "brand": "西友",
        "area": "中心部",
        "addr:full": "長崎市尾上町1-1"
      }
    },
    {
      "type": "node",
      "id": 6,
      "lat": 32.784,
      "lon": 129.8597,
      "tags": {
        "name": "西友 道の尾店",
        "shop": "スーパー",
        "brand": "西友",
        "area": "中心部",
        "addr:full": "長崎市葉山1-6-10"
      }
    },
    {
      "type": "node",
      "id": 7,
      "lat": 32.7608,
      "lon": 129.869,
      "tags": {
        "name": "エレナ 稲佐店",
        "shop": "スーパー",
        "brand": "エレナ",
        "area": "中心部",
        "addr:full": "長崎市丸尾町1-3"
      }
    },
    {
      "type": "node",
      "id": 8,
      "lat": 32.743,
      "lon": 129.887,
      "tags": {
        "name": "エレナ 上小島店",
        "shop": "スーパー",
        "brand": "エレナ",
        "area": "中心部",
        "addr:full": "長崎市上小島2-4-45"
      }
    },
    {
      "type": "node",
      "id": 9,
      "lat": 32.8007,
      "lon": 129.8456,
      "tags": {
        "name": "エレナ 福田店",
        "shop": "スーパー",
        "brand": "エレナ",
        "area": "中心部",
        "addr:full": "長崎市大浜町1594-6"
      }
    },
    {
      "type": "node",
      "id": 10,
      "lat": 32.7735,
      "lon": 129.8715,
      "tags": {
        "name": "エレナ 小江原店",
        "shop": "スーパー",
        "brand": "エレナ",
        "area": "中心部",
        "addr:full": "長崎市小江原2-41-15"
      }
    },
    {
      "type": "node",
      "id": 11,
      "lat": 32.766,
      "lon": 129.882,
      "tags": {
        "name": "ジョイフルサン 宝町店",
        "shop": "スーパー",
        "brand": "ジョイフルサン→イオン",
        "area": "中心部",
        "addr:full": "長崎市宝町8-1"
      }
    },
    {
      "type": "node",
      "id": 12,
      "lat": 32.759,
      "lon": 129.894,
      "tags": {
        "name": "ジョイフルサン 城栄店",
        "shop": "スーパー",
        "brand": "ジョイフルサン→イオン",
        "area": "中心部",
        "addr:full": "長崎市城栄町20-2"
      }
    },
    {
      "type": "node",
      "id": 13,
      "lat": 32.7552,
      "lon": 129.8885,
      "tags": {
        "name": "ジョイフルサン 江川本店",
        "shop": "スーパー",
        "brand": "ジョイフルサン→イオン",
        "area": "中心部",
        "addr:full": "長崎市江川町232"
      }
    },
    {
      "type": "node",
      "id": 14,
      "lat": 32.775,
      "lon": 129.879,
      "tags": {
        "name": "ジョイフルサン 住吉店",
        "shop": "スーパー",
        "brand": "ジョイフルサン→イオン",
        "area": "中心部",
        "addr:full": "長崎市中園町7-14"
      }
    },
    {
      "type": "node",
      "id": 15,
      "lat": 32.7432,
      "lon": 129.8753,
      "tags": {
        "name": "ジョイフルサン 大浦店",
        "shop": "スーパー",
        "brand": "ジョイフルサン→イオン",
        "area": "中心部",
        "addr:full": "長崎市相生町1-5"
      }
    },
    {
      "type": "node",
      "id": 16,
      "lat": 32.751,
      "lon": 129.8893,
      "tags": {
        "name": "マックスバリュ 本原店（旧ジョイフルサン）",
        "shop": "スーパー",
        "brand": "マックスバリュ",
        "area": "中心部",
        "addr:full": "長崎市扇町4-1"
      }
    },
    {
      "type": "node",
      "id": 17,
      "lat": 32.7383,
      "lon": 129.8814,
      "tags": {
        "name": "ララコープ LaLaあたご",
        "shop": "スーパー",
        "brand": "ララコープ",
        "area": "中心部",
        "addr:full": "長崎市愛宕4-18-20"
      }
    },
    {
      "type": "node",
      "id": 18,
      "lat": 32.77,
      "lon": 129.8741,
      "tags": {
        "name": "ララコープ LaLa滑石",
        "shop": "スーパー",
        "brand": "ララコープ",
        "area": "中心部",
        "addr:full": "長崎市滑石2-9-26"
      }
    },
    {
      "type": "node",
      "id": 19,
      "lat": 32.7576,
      "lon": 129.8736,
      "tags": {
        "name": "業務スーパー 長崎旭町店",
        "shop": "スーパー",
        "brand": "業務スーパー",
        "area": "中心部",
        "addr:full": "長崎市旭町5-1"
      }
    },
    {
      "type": "node",
      "id": 20,
      "lat": 32.7317,
      "lon": 129.9512,
      "tags": {
        "name": "イオン東長崎店",
        "shop": "スーパー",
        "brand": "イオン",
        "area": "東部",
        "addr:full": "長崎市田中町1027-8"
      }
    },
    {
      "type": "node",
      "id": 21,
      "lat": 32.7329,
      "lon": 129.9536,
      "tags": {
        "name": "ララコープ LaLa矢上",
        "shop": "スーパー",
        "brand": "ララコープ",
        "area": "東部",
        "addr:full": "長崎市東町1732-1"
      }
    },
    {
      "type": "node",
      "id": 22,
      "lat": 32.7762,
      "lon": 129.9514,
      "tags": {
        "name": "エレナ 矢上店",
        "shop": "スーパー",
        "brand": "エレナ",
        "area": "東部",
        "addr:full": "長崎市矢上町8-17"
      }
    },
    {
      "type": "node",
      "id": 23,
      "lat": 32.7208,
      "lon": 129.928,
      "tags": {
        "name": "エレナ 日見店",
        "shop": "スーパー",
        "brand": "エレナ",
        "area": "東部",
        "addr:full": "長崎市宿町3-17"
      }
    },
    {
      "type": "node",
      "id": 24,
      "lat": 32.7049,
      "lon": 129.8597,
      "tags": {
        "name": "エレナ 深堀店",
        "shop": "スーパー",
        "brand": "エレナ",
        "area": "南部",
        "addr:full": "長崎市深堀町1-145-24"
      }
    },
    {
      "type": "node",
      "id": 25,
      "lat": 32.6572,
      "lon": 129.8442,
      "tags": {
        "name": "エレナ 三和店",
        "shop": "スーパー",
        "brand": "エレナ",
        "area": "南部",
        "addr:full": "長崎市布巻町990-1"
      }
    },
    {
      "type": "node",
      "id": 26,
      "lat": 32.8612,
      "lon": 129.9147,
      "tags": {
        "name": "マックスバリュ 琴海店",
        "shop": "スーパー",
        "brand": "マックスバリュ",
        "area": "北部",
        "addr:full": "長崎市琴海村松町714"
      }
    },
    {
      "type": "node",
      "id": 27,
      "lat": 32.781,
      "lon": 129.8603,
      "tags": {
        "name": "ララコープ LaLa新戸町",
        "shop": "スーパー",
        "brand": "ララコープ",
        "area": "北部",
        "addr:full": "長崎市新戸町2-8-1"
      }
    },
    {
      "type": "node",
      "id": 28,
      "lat": 32.7453,
      "lon": 129.8737,
      "tags": {
        "name": "セブンイレブン 長崎五島町店",
        "shop": "コンビニ",
        "brand": "セブンイレブン",
        "area": "中心部",
        "addr:full": "長崎市五島町2-29"
      }
    },
    {
      "type": "node",
      "id": 29,
      "lat": 32.7481,
      "lon": 129.8736,
      "tags": {
        "name": "ローソン 長崎浜町店",
        "shop": "コンビニ",
        "brand": "ローソン",
        "area": "中心部",
        "addr:full": "長崎市浜町4-15"
      }
    },
    {
      "type": "node",
      "id": 30,
      "lat": 32.7534,
      "lon": 129.8699,
      "tags": {
        "name": "ローソン 長崎駅前通店",
        "shop": "コンビニ",
        "brand": "ローソン",
        "area": "中心部",
        "addr:full": "長崎市大黒町7-7"
      }
    },
    {
      "type": "node",
      "id": 31,
      "lat": 32.7534,
      "lon": 129.87,
      "tags": {
        "name": "ファミリーマート 長崎駅前店",
        "shop": "コンビニ",
        "brand": "ファミリーマート",
        "area": "中心部",
        "addr:full": "長崎市大黒町7-14"
      }
    },
    {
      "type": "node",
      "id": 32,
      "lat": 32.747,
      "lon": 129.8726,
      "tags": {
        "name": "ファミリーマート 長崎銅座町店",
        "shop": "コンビニ",
        "brand": "ファミリーマート",
        "area": "中心部",
        "addr:full": "長崎市銅座町12-5"
      }
    },
    {
      "type": "node",
      "id": 33,
      "lat": 32.6882,
      "lon": 129.8303,
      "tags": {
        "name": "ローソン 長崎香焼店",
        "shop": "コンビニ",
        "brand": "ローソン",
        "area": "南部",
        "addr:full": "長崎市香焼町堀切3021-5"
      }
    },
    {
      "type": "node",
      "id": 34,
      "lat": 32.6502,
      "lon": 129.8124,
      "tags": {
        "name": "セブンイレブン 長崎蚊焼町店",
        "shop": "コンビニ",
        "brand": "セブンイレブン",
        "area": "南部",
        "addr:full": "長崎市蚊焼町"
      }
    },
    {
      "type": "node",
      "id": 35,
      "lat": 32.7038,
      "lon": 129.8576,
      "tags": {
        "name": "ローソン 長崎深堀町二丁目店",
        "shop": "コンビニ",
        "brand": "ローソン",
        "area": "南部",
        "addr:full": "長崎市深堀町2-147"
      }
    },
    {
      "type": "node",
      "id": 36,
      "lat": 32.5849,
      "lon": 129.7617,
      "tags": {
        "name": "丸吉ストアー",
        "shop": "個人商店",
        "brand": "-",
        "area": "南部",
        "addr:full": "長崎市野母町2229-6"
      }
    },
    {
      "type": "node",
      "id": 37,
      "lat": 32.6178,
      "lon": 129.7847,
      "tags": {
        "name": "草野商店",
        "shop": "個人商店",
        "brand": "-",
        "area": "南部",
        "addr:full": "長崎市脇岬町3560-55"
      }
    }
  ]
}